r|859CBD|8798C4|849EC5|879CC4|86A3BF|8798BC|8AA2C0|8799BD|889BC2|879DC2$GPRMC,024423.449,A,3410.2399,N,11820.2499,W,0.45,94.17,171008,,*25
r|879BC2|8797C4|83A3C6|879CBB|849DC0|80A3C0|819BBB|839BBF|829EC0|839CC1$GPRMC,024424.449,A,3410.2404,N,11820.2495,W,1.30,60.36,171008,,*26
r|849CC5|84A6BF|8B9EBC|88A1B9|8899BA|899CBF|879BC2|859DC4|839EC6|7DA8C2$GPRMC,024425.449,A,3410.2389,N,11820.2506,W,0.63,131.36,171008,,*1C
r|80A0B8|84A1B8|839EBB|829DBD|80A0BF|82A7D2|7DB3CE|898FAE|8A93B3|849FB8$GPRMC,024426.449,A,3410.2408,N,11820.2476,W,0.97,200.36,171008,,*1D
r|879CC0|849CC2|8494C7|7FBDC8|8098B4|809AB7|81A1BA|819FBB|82A1C0|829EC1$GPRMC,024427.449,A,3410.2432,N,11820.2443,W,0.62,101.10,171008,,*1F
r|839DC3|869FB9|8199B9|8499BD|87A4C4|8A9EBE|8896BB|8597B9|8399B4|7AD6FF$GPRMC,024428.449,A,3410.2451,N,11820.2414,W,0.34,244.62,171008,,*13
r|80A5E4|878089|818795|859DB9|7AF2FF|889BCB|8384A9|8B7BAD|77C3CC|8F89B4r|849EC8|859BBE|859EBF|849FC0|849DC1|849DC1|859DC0|849DBF|000000|000000r|859DC0|859DC0|859EC0|859EC0|859DC0|859DBF|859FC0|85A0C0|859EBE|849EC0r|869EC0|869EBF|859CBF|859EC1|859EC0|859EBF|849FBF|869EBF|869EBF|859EBFr|859FBF|869FC0|879FBF|88A0BE|88A1BB|87A2BA|86A7B9|89A3B5|89AEB7|87ACBFr|89A1BC|86A1B9|889EBA|839EC0|79ADC8|7CA8BE|7C99B7|8195B9|819DC5|84A3CCr|82B0CD|889EB4|8595AD|8493B3|8399C1|81A2CB|81ADCD|77AEC1|8295B0|8390AFr|8596BE|8CA8C8|8CA4C1|889BBA|8597B3|8697BD|889DC7|86A0CD|80A3C0|7FA3BF$GPRMC,024436.449,A,3410.2474,N,11820.2542,W,2.03,205.33,171008,,*1E
r|7EA1BE|819DC3|879FCA|81A5C0|8B9FBC|829BB8|8592B9|859CC6|7E9FCE|7DA6C4r|819CB7|819DC7|85A3CA|849DC0|869EBC|8595B4|8597BC|859BC7|80A1CE|000000r|7FA6C2|8597B6|8499BC|839DC5|89A4C9|84A4C3|8996B8|8099B6|8598BD|879DC8r|83A4CF|7EA0BA|8593B4|8696BC|879FCA|8BADC7|88A2BF|8699B6|8292B6|8598C2r|83A5CC|82A2BF|829DB6|8791B3|859BC2|84A0CA|84ACCB|869ABE|839DB8|8691BEr|8699C7|84A5BE|819CBD|8496B9|8B96B9|889ECA|8B9CCB|90A0BD|8497C2|8599B8$GPRMC,024442.449,A,3410.2500,N,11820.2581,W,1.06,324.62,171008,,*10
r|8896B7|8698CC|81A5C4|879CBA|8794BB|859DC2|879ECA|88A0C2|85A5BD|818EBE$GPRMC,024443.449,A,3410.2500,N,11820.2574,W,2.72,335.21,171008,,*1C
r|859CC5|82A9C2|84A4B8|809FBD|8499BC|819AC9|849EC9|8A98C0|82A0BB|8594B9$GPRMC,024444.449,A,3410.2517,N,11820.2565,W,0.72,253.40,171008,,*19
r|8699BF|81A4CB|829FC2|8198BD|8793B6|81A2C5|83A0CA|89A1C0|84A4BD|8197BC$GPRMC,024445.449,A,3410.2541,N,11820.2569,W,0.78,323.97,171008,,*11
r|8893B8|879FCD|83A6C0|7E9FBD|8598B4|889AB7|889DC7|8C9ACD|9094C1|859CBE$GPRMC,024446.449,A,3410.2597,N,11820.2550,W,0.44,307.77,171008,,*14
r|8699B8|88A1CA|85A9CE|839CC3|8598B6|8994B7|869CC6|899BCB|88AAC3|8A97BE$GPRMC,024447.449,A,3410.2573,N,11820.2586,W,1.00,324.62,171008,,*10
r|859DB8|8899C7|889FCB|81A9C3|839BBB|879DB2|8994BA|899FC6|8A9ACF|8E9BC2$GPRMC,024448.449,A,3410.2577,N,11820.2595,W,0.51,285.23,171008,,*13
r|80A0C1|8895BC|88A1C7|86A6D0|82A4C1|8199BA|8A94B4|879FC0|88A1CA|8CA3C4$GPRMC,024449.449,A,3410.2626,N,11820.2614,W,0.66,276.56,171008,,*15
r|87A4C0|8B8FB6|899BC5|86A5CB|83ACC3|8297BC|819BB9|8A95B8|8998C8|8A98CF$GPRMC,024450.449,A,3410.2639,N,11820.2618,W,0.85,313.33,171008,,*13
r|88A2C8|8497B5|8A94BA|869DCC|85A9CE|849EC3|7D9AC0|8893B2|859CBD|8B9DC9$GPRMC,024451.449,A,3410.2563,N,11820.2596,W,0.89,325.18,171008,,*1B
r|8DA2CA|8595B9|8990B7|8B94BD|87A2CA|85AFC8|8499C3|7F9DC0|8B93B3|849BC3$GPRMC,024452.449,A,3410.2595,N,11820.2605,W,1.10,334.87,171008,,*1F
r|83A3C5|85A7C1|8999B9|869DC0|84A1BF|8EA0B9|87A2C2|869EBF|819FBD|8CA5B9$GPRMC,024453.449,A,3410.2583,N,11820.2603,W,0.48,206.94,171008,,*11
r|DD90EF|44A2D4|639EBC|7B97C3|97A8B7|89A4C8|8B9DB9|8598C3|8A9CC4|8B9EC3$GPRMC,024454.449,A,3410.2597,N,11820.2604,W,1.13,18.95,171008,,*27
r|8B98BF|8997C3|8B97C2|8897C4|8697C3|8598C5|859AC5|8B98C8|819BC5|869DB7r|7CA0C2|7C9CBD|7EA0BB|7EA3BF|7FA1BF|819DBC|83A1C0|8998C3|000000|000000r|81A9C2|88A1C1|8D95BE|8A99C2|8A94C1|8C90C3|8C97C7|88AACC|85A2C3|8094B9$GPRMC,024457.449,A,3410.2529,N,11820.2556,W,1.27,97.58,171008,,*24
r|8490BC|8999C6|8D9DCC|8CA0CF|87A5BD|858EBA|8893B9|8A94C3|8696CF|7EBAC1$GPRMC,024458.449,A,3410.2531,N,11820.2564,W,3.65,68.05,171008,,*2F
r|8698B9|87A5CC|9397CB|8BA4C2|7D8ABF|8596B4|8A97C5|84A4CC|809FCB|8295BD$GPRMC,024459.449,A,3410.2530,N,11820.2559,W,2.95,70.97,171008,,*2D
r|879AB1|90A0CC|8DA4CD|9090C5|80A2BF|8A8EB2|8B94BE|8D97CA|8CABD4|869EC5$GPRMC,024500.449,A,3410.2531,N,11820.2551,W,3.32,69.51,171008,,*27
r|819ABA|8E99C3|8BA4CE|8B9EC6|899DBE|8498B8|8A91BA|8B94C5|88A3CA|82A2C7$GPRMC,024501.449,A,3410.2
